City_ID,City,Lat,Lng,Max Temp,Humidity,Cloudiness,Wind Speed,Country,Date
0,waitangi,-43.9535,-176.5597,291.38,82,8,4.02,NZ,1704331711
1,whitehorse,60.7161,-135.0538,261.58,84,100,2.06,CA,1704331712
2,puerto natales,-51.7236,-72.4875,283.87,91,100,1.72,CL,1704331712
3,mazagao,-0.115,-51.2894,301.18,90,100,1.64,BR,1704331713
4,oulainen,64.2667,24.8,244.71,100,12,1.62,FI,1704331715
5,chibougamau,49.9168,-74.3659,258.94,85,100,2.06,CA,1704331715
6,adamstown,-25.066,-130.1015,297.27,80,99,2.62,PN,1704331459
7,albany,42.6001,-73.9662,275.17,80,97,0.89,US,1704331716
8,yellowknife,62.456,-114.3525,244.44,69,100,3.09,CA,1704331716
9,petropavlovsk-kamchatsky,53.0452,158.6483,259.48,66,0,4.0,RU,1704331716
10,tura,25.5198,90.2201,285.96,77,0,1.59,IN,1704331717
11,cobija,-11.0267,-68.7692,297.81,93,100,0.85,BO,1704331718
12,georgetown,5.4112,100.3354,301.11,77,20,3.6,MY,1704331421
13,coos bay,43.3665,-124.2179,282.22,93,100,0.0,US,1704331719
14,estevan,49.1334,-102.9842,263.34,85,100,3.09,CA,1704331720
15,nemuro,43.3236,145.575,272.46,62,77,3.28,JP,1704331721
16,dubbo,-32.25,148.6167,306.22,38,40,2.57,AU,1704331722
17,iqaluit,63.7506,-68.5145,257.0,55,20,10.29,CA,1704331722
18,olonkinbyen,70.9221,-8.7187,268.96,74,100,7.93,SJ,1704331523
19,jamestown,42.097,-79.2353,273.92,97,100,3.6,US,1704331706
20,port lincoln,-34.7333,135.8667,292.39,83,73,7.42,AU,1704331724
21,kingston,17.997,-76.7936,299.68,87,20,2.06,JM,1704331724
22,port-aux-francais,-49.35,70.2167,277.6,68,71,14.52,TF,1704331724
23,medenine,33.355,10.5055,286.17,43,0,4.81,TN,1704331724
24,nadym,65.5333,72.5167,254.09,86,100,8.0,RU,1704331725
25,invercargill,-46.4,168.35,292.05,74,100,4.47,NZ,1704331470
26,grytviken,-54.2811,-36.5092,276.67,73,100,0.61,GS,1704331725
27,flin flon,54.7682,-101.865,255.33,96,82,1.16,CA,1704331725
28,i-n-salah,27.1935,2.4607,286.33,30,0,5.08,DZ,1704331726
29,aykhal,66.0,111.5,241.69,97,100,2.2,RU,1704331726
30,darwha,20.3167,77.7667,291.59,66,0,3.38,IN,1704331726
31,coquimbo,-29.9533,-71.3436,290.0,94,20,4.12,CL,1704331726
32,simpang,-1.2667,104.0833,297.71,95,100,1.34,ID,1704331726
33,tiksi,71.6872,128.8694,235.97,99,70,2.02,RU,1704331727
34,dikhil,11.5,42.1667,292.66,72,6,2.32,DJ,1704331727
35,lihue,21.9789,-159.3672,299.73,67,40,2.57,US,1704331727
36,maintirano,-18.0667,44.0167,300.0,81,100,3.05,MG,1704331728
37,bethel,41.3712,-73.414,276.35,72,100,2.06,US,1704331630
38,avarua,-21.2078,-159.775,301.18,78,40,7.2,CK,1704331728
39,chipinge,-20.1883,32.6236,288.46,89,5,0.92,ZW,1704331728
40,blackmans bay,-43.0167,147.3167,291.33,66,45,0.89,AU,1704331729
41,san ignacio de velasco,-16.3667,-60.95,296.36,97,100,0.71,BO,1704331729
42,kone,-21.0595,164.8658,306.08,46,39,1.29,NC,1704331729
43,ilulissat,69.2167,-51.1,270.16,43,75,7.72,GL,1704331729
44,bredasdorp,-34.5322,20.0403,292.24,87,100,6.18,ZA,1704331729
45,west island,-12.1568,96.8225,301.14,78,75,6.69,CC,1704331730
46,vilyuysk,63.7553,121.6247,240.04,100,100,2.13,RU,1704331730
47,edinburgh of the seven seas,-37.0676,-12.3116,289.86,90,100,4.02,SH,1704331730
48,mont-tremblant,46.1949,-74.6264,272.92,93,100,1.03,CA,1704331730
49,mar del plata,-38.0023,-57.5575,293.76,90,0,4.12,AR,1704331443
50,atafu village,-8.5421,-172.5159,301.81,74,100,5.04,TK,1704331731
51,nouadhibou,20.931,-17.0347,292.14,59,0,6.17,MR,1704331731
52,asuncion,-25.3007,-57.6359,298.09,69,0,3.09,PY,1704331558
53,tayu,-6.5397,111.0518,299.66,85,100,1.59,ID,1704331731
54,punta arenas,-53.15,-70.9167,287.21,72,75,10.8,CL,1704331732
55,msanga,-6.05,36.0333,292.3,95,100,1.34,TZ,1704331732
56,coahuayana de hidalgo,18.7,-103.6583,296.02,79,58,1.26,MX,1704331732
57,stanley,54.868,-1.6985,278.02,95,75,1.03,GB,1704331732
58,pisco,-13.7,-76.2167,295.18,83,100,7.72,PE,1704331733
59,college,64.8569,-147.8028,258.33,70,40,4.12,US,1704331733
60,kavaratti,10.5669,72.642,298.71,90,100,5.24,IN,1704331733
61,polyarnyy,69.1989,33.4478,258.65,81,99,9.48,RU,1704331733
62,banda aceh,5.5577,95.3222,299.28,79,88,3.94,ID,1704331733
63,emporia,38.4039,-96.1817,276.26,75,0,2.06,US,1704331734
64,huilong,31.8111,121.655,278.87,67,0,3.48,CN,1704331734
65,dunedin,-45.8742,170.5036,293.16,61,100,4.92,NZ,1704331638
66,margaret river,-33.95,115.0667,293.25,51,0,4.68,AU,1704331734
67,lompoc,34.6391,-120.4579,286.55,74,0,9.26,US,1704331456
68,acarau,-2.8856,-40.12,300.19,79,87,5.28,BR,1704331735
69,nar'yan-mar,67.6713,53.087,261.67,93,100,6.55,RU,1704331735
70,borzya,50.3833,116.5167,256.79,97,100,2.34,RU,1704331530
71,duong dong,10.2167,103.9667,300.15,78,0,1.03,VN,1704331735
72,griffith,41.5284,-87.4237,275.11,83,100,5.14,US,1704331736
73,ust-nera,64.5667,143.2,231.79,98,94,1.9,RU,1704331736
74,namibe,-15.1961,12.1522,294.79,71,16,3.53,AO,1704331736
75,afaahiti,-17.75,-149.2833,302.08,85,100,7.53,PF,1704331736
76,chingirlau,51.095,54.0814,273.04,94,100,5.55,KZ,1704331737
77,al jawf,29.5,38.75,284.12,63,2,2.84,SA,1704331737
78,saipan,15.1355,145.701,302.54,74,40,7.2,MP,1704331737
79,hawaiian paradise park,19.5933,-154.9731,298.08,77,100,4.12,US,1704331737
80,remire-montjoly,4.9167,-52.2667,299.17,89,75,1.03,GF,1704331737
81,lubbock,33.6001,-101.8338,280.58,53,20,3.09,US,1704331602
82,alofi,-19.0595,-169.9187,303.09,70,75,5.14,NU,1704331455
83,papatowai,-46.5619,169.4708,291.67,57,100,3.84,NZ,1704331738
84,aasiaat,68.7098,-52.8699,260.16,83,91,5.73,GL,1704331738
85,kayangel,8.0823,134.7173,301.84,77,44,5.31,PW,1704331738
86,merizo village,13.2658,144.6691,303.14,82,9,7.17,GU,1704331739
87,tromso,69.6496,18.957,264.16,67,9,3.6,NO,1704331647
88,enewetak,11.3474,162.3373,300.15,73,36,9.93,MH,1704331739
89,uturoa,-16.7333,-151.4333,299.69,84,100,2.89,PF,1704331739
90,ribeira grande,38.5167,-28.7,288.58,89,13,0.45,PT,1704331739
91,timimoun,29.2639,0.231,283.36,43,0,3.09,DZ,1704331740
92,habra,22.8344,88.6275,287.09,54,0,2.51,IN,1704331740
93,ushuaia,-54.8,-68.3,283.96,76,75,4.12,AR,1704331740
94,benjamin aceval,-24.9667,-57.5667,298.48,59,0,2.21,PY,1704331740
95,vila velha,-20.3297,-40.2925,299.12,94,100,2.06,BR,1704331740
96,flying fish cove,-10.4217,105.6791,301.97,78,75,3.6,CX,1704331741
97,longyearbyen,78.2186,15.6401,258.06,72,75,5.66,SJ,1704331741
98,carnarvon,-24.8667,113.6333,302.54,50,0,6.58,AU,1704331456
99,mariehamn,60.0973,19.9348,263.05,85,100,4.12,AX,1704331743
100,talnakh,69.4865,88.3972,247.15,93,100,5.66,RU,1704331743
101,manakara,-22.1333,48.0167,297.17,93,96,1.81,MG,1704331743
102,mount isa,-20.7333,139.5,304.02,55,44,4.63,AU,1704331744
103,faya-largeau,17.9257,19.1043,292.82,20,0,5.36,TD,1704331744
104,minas de marcona,-15.2119,-75.1103,290.77,85,100,4.81,PE,1704331744
105,bull savanna,17.8868,-77.5902,296.94,84,67,3.48,JM,1704331744
106,abra pampa,-22.7205,-65.697,284.65,70,83,7.07,AR,1704331744
107,nantucket,41.2835,-70.0995,275.94,80,0,0.0,US,1704331609
108,praia,14.9215,-23.5087,295.45,83,0,5.66,CV,1704331745
109,hermanus,-34.4187,19.2345,293.06,82,100,8.12,ZA,1704331745
110,bilibino,68.0546,166.4372,241.52,99,100,0.26,RU,1704331745
111,santana,-0.0583,-51.1817,301.25,94,100,3.6,BR,1704331745
112,gadzhiyevo,69.2551,33.3362,258.32,80,98,10.52,RU,1704331746
113,nuuk,64.1835,-51.7216,269.49,86,100,13.38,GL,1704331746
114,canyon,34.9803,-101.9188,280.4,62,20,4.02,US,1704331532
115,laojunmiao,39.8333,97.7333,266.89,39,100,0.63,CN,1704331747
116,usogorsk,63.4106,48.6872,239.63,99,100,1.18,RU,1704331747
117,ghat,24.9647,10.1728,285.45,38,100,0.82,LY,1704331747
118,tazacorte,28.629,-17.9293,291.69,68,0,3.6,ES,1704331747
119,midvagur,62.0511,-7.1939,277.61,87,100,8.75,FO,1704331748
120,kapuskasing,49.4169,-82.4331,259.2,78,100,5.66,CA,1704331748
121,debila,33.5167,6.95,282.19,71,0,2.57,DZ,1704331748
122,constantia,44.1833,28.65,279.65,85,8,6.87,RO,1704331748
123,hadibu,12.65,54.0333,296.64,72,4,3.8,YE,1704331749
124,howard springs,-12.497,131.047,306.47,75,29,1.82,AU,1704331749
125,esperantinopolis,-4.8667,-44.7083,297.35,92,100,0.84,BR,1704331749
126,dompu,-8.5356,118.4622,305.39,57,97,1.12,ID,1704331749
127,pasuquin,18.3328,120.6177,301.12,65,20,6.69,PH,1704331750
128,magole,-6.3667,37.3667,295.44,93,100,0.55,TZ,1704331750
129,ghatanji,20.1333,78.3167,291.81,68,0,2.71,IN,1704331750
130,lazaro cardenas,17.9583,-102.2,296.91,74,59,1.37,MX,1704331750
131,broken hill,-31.95,141.4333,301.04,46,100,7.75,AU,1704331668
132,keflavik,64.0049,-22.5624,274.39,80,0,5.66,IS,1704331751
133,mezhdurechenskiy,59.6,65.9333,242.81,95,100,2.22,RU,1704331751
134,mitu,1.1983,-70.1733,298.88,75,74,0.85,CO,1704331751
135,al hadd,26.2456,50.6542,292.14,72,0,6.17,BH,1704331752
136,richards bay,-28.783,32.0377,294.65,83,98,0.85,ZA,1704331543
137,morant bay,17.8815,-76.4093,299.94,85,52,4.77,JM,1704331752
138,baruun-urt,46.6806,113.2792,258.92,90,100,3.78,MN,1704331752
139,rongelap,11.1635,166.8941,300.18,76,100,9.31,MH,1704331752
140,udachny,66.4167,112.4,240.57,96,100,1.63,RU,1704331753
141,bovril,-31.3431,-59.4451,296.43,71,57,4.49,AR,1704331753
142,brisas de zicatela,15.8369,-97.0419,299.44,65,40,1.54,MX,1704331753
143,machico,32.7,-16.7667,292.43,89,20,0.0,PT,1704331753
144,vysokiy,58.35,60.05,250.66,99,100,3.32,RU,1704331754
145,diu,20.7141,70.9822,291.37,42,0,3.77,IN,1704331754
146,kampung tanjung karang,3.4242,101.1849,300.38,88,100,1.89,MY,1704331754
147,vadso,70.0744,29.7487,263.24,85,100,7.2,NO,1704331754
148,pindushi,62.9152,34.58,240.54,100,33,0.66,RU,1704331755
149,jining,35.405,116.5814,276.57,60,0,6.01,CN,1704331755
150,nova vicosa,-17.8919,-39.3719,299.09,87,100,4.87,BR,1704331755
151,daru,-9.0763,143.2092,302.41,77,99,1.14,PG,1704331755
152,alo,7.4178,6.7371,299.41,47,96,1.63,NG,1704331756
153,nova sintra,14.8667,-24.7167,294.72,65,97,8.11,CV,1704331756
154,hermantown,46.8069,-92.2383,265.32,74,100,4.63,US,1704331756
155,salalah,17.0151,54.0924,294.2,49,0,1.03,OM,1704331756
156,funafuti,-8.5243,179.1942,304.15,84,75,1.03,TV,1704331476
157,xining,36.6167,101.7667,267.72,31,40,0.53,CN,1704331757
158,klaksvik,62.2266,-6.589,277.66,93,100,12.56,FO,1704331757
159,rouyn-noranda,48.2398,-79.0288,261.2,79,100,5.66,CA,1704331525
160,tarinkot,32.6268,65.8733,278.77,71,8,1.16,AF,1704331758
161,letterkenny,54.95,-7.7333,279.11,93,78,2.93,IE,1704331758
162,santa cruz,-17.8,-63.1667,297.85,94,75,3.6,BO,1704331592
163,fort leonard wood,37.7057,-92.1572,275.25,79,0,3.09,US,1704331758
164,masuguru,-11.3667,38.4167,296.46,97,98,1.06,TZ,1704331639
165,varangaon,21.0167,75.9,293.9,54,78,2.39,IN,1704331759
166,khandyga,62.6667,135.6,239.76,100,94,0.74,RU,1704331759
167,yeppoon,-23.1333,150.7333,303.03,68,26,3.78,AU,1704331759
168,gamboma,-1.8764,15.8644,296.36,88,84,1.8,CG,1704331759
169,whangarei,-35.7317,174.3239,294.52,67,93,1.95,NZ,1704331760
170,ust'-barguzin,53.45,108.9833,261.76,97,100,1.73,RU,1704331760
171,lubango,-14.9172,13.4925,288.96,48,100,1.17,AO,1704331665
172,bereznik,62.8551,42.7072,238.97,100,27,0.23,RU,1704331760
173,bonthe,7.5264,-12.505,299.36,84,6,2.37,SL,1704331760
174,touros,-5.1989,-35.4608,300.22,77,5,4.82,BR,1704331761
175,verkhnevilyuysk,63.4453,120.3167,239.28,100,100,1.75,RU,1704331761
176,port mathurin,-19.6833,63.4167,300.88,82,100,4.97,MU,1704331761
177,monrovia,6.3005,-10.7969,299.58,83,6,3.24,LR,1704331762
178,kodiak,57.79,-152.4072,274.88,93,100,1.54,US,1704331762
179,klyuchi,52.2667,79.1667,255.37,99,99,2.21,RU,1704331762
180,guangshui,31.6199,113.9978,279.12,66,44,1.34,CN,1704331762
181,wewak,-3.5534,143.6268,303.19,69,78,1.04,PG,1704331762
182,gargalianoi,37.0667,21.6333,285.01,77,100,3.1,GR,1704331763
183,inongo,-1.95,18.2667,295.8,95,86,1.51,CD,1704331763
184,mersa matruh,31.3525,27.2453,284.26,76,0,0.0,EG,1704331763
185,mount pearl,47.5166,-52.7813,273.19,85,100,1.54,CA,1704331763
186,port alfred,-33.5906,26.891,291.03,99,100,0.45,ZA,1704331763
187,taoudenni,22.6783,-3.9836,291.73,21,100,4.96,ML,1704331764
188,jiamusi,46.8333,130.35,260.83,93,99,0.95,CN,1704331764
189,guerrero negro,27.9769,-114.0611,290.21,65,0,9.8,MX,1704331764
190,chadan,51.2833,91.5833,259.64,94,100,0.52,RU,1704331765
191,sault ste. marie,46.5168,-84.3333,265.46,67,0,5.14,CA,1704331765
192,la passe,45.5549,-0.8967,282.28,84,2,6.18,FR,1704331765
193,abbeville,50.1,1.8333,284.13,89,57,8.87,FR,1704331765
194,puerto ayora,-0.7393,-90.3518,298.46,94,89,1.79,EC,1704331766
195,sinabang,2.4803,96.3801,299.8,83,100,0.95,ID,1704331766
196,kamloops,50.6665,-120.3192,277.36,89,100,2.06,CA,1704331766
197,mhamid,29.82,-5.72,285.9,29,55,1.6,MA,1704331766
198,tazovsky,67.4667,78.7,252.86,97,100,6.5,RU,1704331767
199,tevriz,57.509,72.4042,240.88,98,99,1.93,RU,1704331767
200,utrik,11.2278,169.8474,299.93,78,74,10.99,MH,1704331767
201,luderitz,-26.6481,15.1594,291.19,97,51,2.41,NA,1704331767
202,igarape acu,-1.1289,-47.62,297.01,96,100,1.65,BR,1704331768
203,kristiansund,63.1115,7.732,269.51,46,40,3.09,NO,1704331768
204,korla,41.7597,86.1469,267.89,64,100,0.62,CN,1704331768
205,kailua-kona,19.6406,-155.9956,300.13,71,20,4.12,US,1704331688
206,najafabad,32.6344,51.3668,274.45,58,0,2.48,IR,1704331768
207,plastun,44.7561,136.2939,266.93,52,84,1.33,RU,1704331769
208,ha'il,27.5219,41.6907,280.16,100,10,1.03,SA,1704331769
209,pudozh,61.8099,36.5345,241.45,99,12,1.34,RU,1704331769
210,isafjordur,66.0755,-23.124,273.65,88,100,3.32,IS,1704331769
211,eastham,41.8301,-69.9739,275.9,70,0,0.45,US,1704331769
212,kharabali,47.4196,47.2568,271.57,75,65,3.76,RU,1704331770
213,wotho,10.1657,166.0102,300.31,79,84,10.26,MH,1704331770
214,nadi,-17.8,177.4167,303.15,70,40,6.17,FJ,1704331770
215,livingston,55.9029,-3.5226,279.53,91,20,2.57,GB,1704331770
216,alice springs,-23.7,133.8833,302.9,32,97,4.63,AU,1704331490
217,puerto aysen,-45.4,-72.7,289.61,80,100,1.81,CL,1704331771
218,chivilcoy,-34.8957,-60.0167,295.04,63,18,4.24,AR,1704331576
219,puerto armuelles,8.2833,-82.8667,301.14,85,53,2.52,PA,1704331771
220,fale old settlement,-9.3852,-171.2468,302.27,73,97,5.36,TK,1704331771
221,ugoofaaru,5.6667,73.0,300.63,80,91,3.93,MV,1704331771
222,rawson,-43.3002,-65.1023,296.29,47,100,2.57,AR,1704331668
223,cabedelo,-6.9811,-34.8339,300.52,78,3,3.69,BR,1704331772
224,tralee,52.2704,-9.7026,280.28,80,13,5.23,IE,1704331772
225,garbahaarrey,3.3289,42.2209,298.96,33,48,3.23,SO,1704331772
226,fort mcmurray,56.7268,-111.381,261.92,85,100,2.57,CA,1704331542
227,genhe,50.7833,121.5167,257.36,95,100,1.46,CN,1704331773
228,lionel town,17.8101,-77.2406,300.09,83,28,3.69,JM,1704331773
229,thompson,55.7435,-97.8558,256.24,85,100,1.03,CA,1704331525
230,wailua homesteads,22.0669,-159.378,299.39,75,40,2.57,US,1704331774
231,palmares do sul,-30.2578,-50.5097,294.96,80,5,6.85,BR,1704331774
232,hamilton,39.1834,-84.5333,276.06,81,100,5.14,US,1704331665
233,island harbour,50.724,-1.2758,282.58,84,83,3.13,GB,1704331775
234,hasaki,35.7333,140.8333,283.31,74,100,13.1,JP,1704331775
235,paracatu,-17.2222,-46.8747,294.32,98,100,1.35,BR,1704331776
236,charters towers,-20.1,146.2667,305.34,45,0,2.79,AU,1704331776
237,san patricio,28.017,-97.5169,285.84,74,23,4.69,US,1704331776
238,port blair,11.6667,92.75,298.17,88,40,2.06,IN,1704331776
239,karratha,-20.7377,116.8463,302.05,52,0,4.24,AU,1704331746
240,arawa,-6.2132,155.5367,305.86,61,93,1.37,PG,1704331777
241,nikolayevsk-on-amure,53.1406,140.73,255.4,90,100,1.09,RU,1704331777
242,happy valley-goose bay,53.3168,-60.3315,258.32,72,75,2.06,CA,1704331777
243,guymon,36.6828,-101.4816,277.15,60,0,3.09,US,1704331777
244,akureyri,65.6835,-18.0878,274.11,75,100,1.03,IS,1704331777
245,badger,64.8,-147.5333,258.29,71,40,4.12,US,1704331778
246,susuman,62.7833,148.1667,235.92,100,98,0.45,RU,1704331778
247,hammerfest,70.6634,23.6821,272.4,69,75,6.69,NO,1704331778
248,ziway,7.9333,38.7167,290.26,55,23,5.38,ET,1704331778
249,kertih,4.5141,103.4483,299.16,94,40,1.54,MY,1704331778
250,portland,45.5234,-122.6762,282.93,92,100,3.6,US,1704331537
251,greymouth,-42.4667,171.2,289.82,71,100,2.76,NZ,1704331779
252,vilyuchinsk,52.9306,158.4028,260.3,82,32,2.85,RU,1704331779
253,yaring,6.8662,101.3689,301.09,80,100,4.88,TH,1704331780
254,tres lagoas,-20.7511,-51.6783,300.89,58,1,1.06,BR,1704331780
255,camocim,-2.9022,-40.8411,300.28,80,100,5.42,BR,1704331780
256,uyskoye,54.3775,60.0047,261.43,96,100,1.62,RU,1704331780
257,fort bragg,35.139,-79.006,281.06,66,100,0.0,US,1704331781
258,tawau,4.2498,117.8871,303.22,77,90,1.28,MY,1704331781
259,hithadhoo,-0.6,73.0833,301.12,75,99,2.35,MV,1704331781
260,port elizabeth,-33.918,25.5701,292.65,94,75,0.51,ZA,1704331781
261,oroqen zizhiqi,50.5667,123.7167,255.94,94,100,1.4,CN,1704331781
262,bengkulu,-3.8004,102.2655,298.57,88,100,2.35,ID,1704331782
263,qarqaraly,49.4058,75.4742,259.32,78,82,2.57,KZ,1704331782
264,altay,47.8667,88.1167,261.19,86,92,2.34,CN,1704331782
265,kidal,18.4411,1.4078,293.17,15,57,3.16,ML,1704331782
266,tofol,5.3248,163.0078,301.63,76,80,7.46,FM,1704331782
267,igarka,67.4667,86.5833,242.68,97,100,6.43,RU,1704331783
268,kuching,1.55,110.3333,302.6,94,40,2.06,MY,1704331783
269,punta del este,-34.9667,-54.95,294.21,90,20,5.14,UY,1704331783
270,kirensk,57.7853,108.1119,267.57,95,100,3.13,RU,1704331783
271,kilju,40.9642,129.3278,271.29,75,39,0.7,KP,1704331783
272,tyukhtet,56.5389,89.3011,250.7,93,100,4.24,RU,1704331783
273,san luis de la loma,17.2706,-100.8939,297.58,78,0,2.31,MX,1704331784
274,arraial do cabo,-22.9661,-42.0278,299.13,83,75,3.6,BR,1704331784
275,san sebastian de la gomera,28.0916,-17.1133,293.35,88,0,1.03,ES,1704331784
276,papao,-17.75,-149.55,302.97,81,100,7.23,PF,1704331784
277,oranjemund,-28.55,16.4333,290.78,96,69,1.14,NA,1704331784
278,ocean shores,46.9737,-124.1563,282.15,94,100,5.66,US,1704331784
279,mount gambier,-37.8333,140.7667,294.63,51,100,5.73,AU,1704331784
280,conchas,-23.0153,-48.0106,294.43,93,27,3.97,BR,1704331784
281,iraquara,-12.2486,-41.6194,294.14,97,61,0.68,BR,1704331785
282,sao joao da barra,-21.6403,-41.0511,296.92,96,100,3.94,BR,1704331785
283,birjand,32.8663,59.2211,278.41,75,0,6.17,IR,1704331785
284,pacasmayo,-7.4006,-79.5714,295.88,83,100,5.21,PE,1704331785
285,dudinka,69.4058,86.1778,247.41,95,100,6.26,RU,1704331785
286,aleksandrovsk-sakhalinskiy,50.8975,142.1561,261.58,92,100,2.02,RU,1704331785
287,sao vicente,-23.9631,-46.3919,299.41,26,100,3.17,BR,1704331785
288,richard-toll,16.4625,-15.7008,295.97,12,23,4.04,SN,1704331786
289,shalkar,47.8288,59.6258,274.07,86,100,5.35,KZ,1704331786
290,dobroye,52.8678,39.8109,248.01,98,80,2.05,RU,1704331786
291,bo phloi,14.3236,99.5161,296.26,59,5,2.0,TH,1704331786
292,bardai,11.65,7.2333,291.42,19,29,3.86,NG,1704331786
293,chittarkonda,18.1167,82.0833,287.58,90,12,0.92,IN,1704331786
294,quito,-0.2299,-78.5249,283.68,94,100,0.84,EC,1704331668
295,batesville,35.7698,-91.641,278.38,65,0,0.0,US,1704331676
296,labrador city,52.9463,-66.9114,257.1,85,75,1.03,CA,1704331787
297,vorgashor,67.5833,63.95,252.4,98,100,6.68,RU,1704331787
298,cabo san lucas,22.8909,-109.9124,295.79,60,0,2.57,MX,1704331787
299,haffouz,35.6324,9.6762,282.72,41,2,1.48,TN,1704331787
300,howrah,22.5892,88.3103,287.15,88,0,0.0,IN,1704331787
301,anadyr,64.75,177.4833,258.43,92,75,5.0,RU,1704331787
302,alajarvi,63.0,23.8167,245.66,98,5,1.96,FI,1704331788
303,buka,40.8108,69.1986,278.4,45,100,0.52,UZ,1704331788
304,marsh harbour,26.5412,-77.0636,294.71,63,100,5.68,BS,1704331788
305,shrewsbury,52.7101,-2.7521,281.31,93,100,3.09,GB,1704331788
306,sogndal,61.2283,7.1003,264.36,52,82,6.17,NO,1704331788
307,kharp,66.8014,65.8081,252.14,91,75,4.5,RU,1704331788
308,langepas,61.2544,75.2124,241.41,97,11,2.93,RU,1704331788
309,quezon,7.7303,125.0989,300.58,74,5,1.64,PH,1704331789
310,gizo,-8.103,156.8419,302.32,74,100,2.53,SB,1704331789
311,vila franca do campo,37.7167,-25.4333,289.38,88,98,3.93,PT,1704331789
312,sanliurfa,37.2128,38.7817,280.08,91,100,2.1,TR,1704331789
313,taro,-8.3862,115.28,300.15,81,100,0.62,ID,1704331789
314,egilsstadir,65.2653,-14.3948,272.1,93,75,1.54,IS,1704331789
315,baoshan,46.5586,131.4244,262.95,88,88,1.93,CN,1704331789
316,labytnangi,66.6572,66.4183,251.66,89,52,3.51,RU,1704331790
317,whitecourt,54.1502,-115.6855,264.73,100,100,2.57,CA,1704331790
318,kalmunai,7.4167,81.8167,298.02,81,76,2.02,LK,1704331790
319,saint-joseph,-21.3667,55.6167,298.36,81,100,1.48,RE,1704331790
320,pahrump,36.2083,-115.9839,278.32,82,100,0.45,US,1704331676
321,omutninsk,58.67,52.1932,256.39,94,100,5.42,RU,1704331790
322,patterson,37.4716,-121.1297,284.29,85,67,1.9,US,1704331500
323,gamba,-2.65,10.0,298.46,88,100,2.3,GA,1704331791
324,al majaridah,19.1236,41.9111,295.93,77,1,0.56,SA,1704331791
325,bayanhongor,46.7167,100.1167,247.01,79,12,1.93,MN,1704331791
326,san bernardo del viento,9.3533,-75.9524,300.5,85,99,5.02,CO,1704331791
327,tabou,4.423,-7.3528,299.55,82,93,2.87,CI,1704331791
328,rocha,-34.4833,-54.3333,290.99,93,5,3.73,UY,1704331642
329,balqash,46.8481,74.995,259.48,92,0,6.0,KZ,1704331791
330,tchollire,8.4022,14.1698,294.56,23,8,0.77,CM,1704331791
331,bubaque,11.2833,-15.8333,299.12,80,17,6.04,GW,1704331792
332,mindelo,16.8901,-24.9804,295.9,68,20,7.2,CV,1704331792
333,jabor,5.921,169.6434,301.18,80,95,9.98,MH,1704331792
334,tonj,7.2737,28.6822,295.5,20,100,2.13,SS,1704331792
335,freetown,8.484,-13.2299,298.99,83,6,3.6,SL,1704331792
336,harper,4.375,-7.7169,299.51,82,62,3.11,LR,1704331792
337,erenhot,43.6475,111.9767,263.86,75,7,10.2,CN,1704331792
338,patrasaer,23.2167,87.5167,287.74,49,0,1.03,IN,1704331793
339,hotan,37.0997,79.9269,269.58,49,92,1.75,CN,1704331793
340,morehead city,34.7229,-76.726,285.15,69,0,2.06,US,1704331556
341,usinsk,65.9939,57.5281,249.86,98,100,7.15,RU,1704331793
342,geraldton,-28.7667,114.6,301.38,30,0,11.83,AU,1704331578
343,buala,-8.145,159.5921,303.0,72,64,1.94,SB,1704331793
344,qaqortoq,60.7167,-46.0333,270.76,97,100,2.15,GL,1704331793
345,chehalis,46.662,-122.964,281.62,98,100,1.54,US,1704331793
346,ventspils,57.3894,21.5606,264.11,79,100,7.2,LV,1704331794
347,berdigestyakh,62.0989,126.6992,239.1,100,94,1.71,RU,1704331794
348,ceeldheer,3.8488,47.1806,297.3,73,100,6.85,SO,1704331794
349,maceio,-9.6658,-35.7353,298.84,94,0,2.06,BR,1704331558
350,kendal,54.3268,-2.7476,281.54,91,88,1.59,GB,1704331794
351,zalingei,12.9096,23.4741,291.5,18,100,1.24,SD,1704331794
352,saldanha,-33.0117,17.9442,291.18,82,90,2.74,ZA,1704331794
353,ronne,55.1009,14.7066,273.1,100,100,11.32,DK,1704331794
354,shihezi,44.3,86.0333,261.81,88,11,1.54,CN,1704331795
355,vung tau,10.346,107.0843,298.66,73,12,3.14,VN,1704331795
356,fort st. john,56.2499,-120.8529,263.09,92,100,4.63,CA,1704331795
357,smithers,54.7804,-127.1743,272.33,93,75,3.6,CA,1704331795
358,naracoorte,-36.9579,140.7383,297.64,46,100,5.05,AU,1704331795
359,ola,59.5833,151.2833,248.54,88,21,2.79,RU,1704331795
360,katsuura,35.1333,140.3,283.16,65,53,10.9,JP,1704331795
361,pingdingshan,33.7385,113.3012,279.16,69,0,3.81,CN,1704331796
362,puerto baquerizo moreno,-0.9,-89.6,297.84,83,40,3.67,EC,1704331796
363,tolanaro,-25.0319,46.9987,295.19,100,75,0.0,MG,1704331796
364,kharan,28.5833,65.4167,287.12,40,41,0.6,PK,1704331796
365,paoua,7.2427,16.4406,294.1,23,72,1.2,CF,1704331796
366,cedeira,43.6797,-8.0209,285.03,77,100,8.19,ES,1704331796
367,manta,-0.95,-80.7333,299.82,74,75,6.26,EC,1704331796
368,vilhena,-12.7406,-60.1458,294.4,98,94,1.2,BR,1704331784
369,rio verde de mato grosso,-18.9181,-54.8442,299.25,75,100,1.11,BR,1704331797
370,isangel,-19.55,169.2667,302.21,74,100,6.17,VU,1704331797
371,mogadishu,2.0371,45.3438,299.13,74,100,7.69,SO,1704331797
372,douz,33.4663,9.0203,284.78,53,0,4.28,TN,1704331797
373,zlate moravce,48.3855,18.4006,282.11,93,100,2.87,SK,1704331797
374,huayin,34.5675,110.0921,279.06,50,0,1.43,CN,1704331797
375,pervomayskiy,53.2485,40.2871,247.53,99,93,2.36,RU,1704331797
376,sisimiut,66.9395,-53.6735,266.41,72,100,5.0,GL,1704331798
377,kouroussa,10.65,-9.8833,296.42,19,0,0.7,GN,1704331798
378,fernie,49.5,-115.0687,277.2,98,100,0.91,CA,1704331798
379,chirilagua,13.2203,-88.1386,296.34,72,75,1.77,SV,1704331798
380,arar,30.9753,41.0381,281.16,93,0,2.06,SA,1704331798
381,edd,13.9297,41.6925,298.21,66,6,3.05,ER,1704331799
382,ko pha ngan,9.7578,100.0291,298.53,72,39,3.29,TH,1704331799
383,sibut,5.718,19.0739,295.79,24,44,1.55,CF,1704331799
384,mukalla,14.5425,49.1242,294.92,74,94,1.39,YE,1704331799
385,chonchi,-42.6128,-73.8092,288.77,83,97,0.62,CL,1704331799
386,mokhsogollokh,61.4681,128.9203,233.28,100,98,1.11,RU,1704331799
387,iskateley,67.6803,53.1512,261.61,93,100,6.52,RU,1704331799
388,frontera,26.9333,-101.45,287.53,60,0,1.34,MX,1704331800
389,al qusayr,34.5091,36.5798,283.55,73,0,2.45,SY,1704331800
390,kenai,60.5544,-151.2583,272.18,64,100,11.83,US,1704331800
391,bayanga,7.5214,124.2522,299.92,70,8,0.75,PH,1704331800
392,fisterra,42.9049,-9.2629,286.34,85,100,10.29,ES,1704331801
393,bikenibeu village,1.3673,173.1241,299.13,100,100,5.14,KI,1704331801
394,yuzhno-kurilsk,44.0306,145.8556,268.36,73,53,0.68,RU,1704331802
395,rockland,41.1668,-74.0496,276.95,71,99,1.59,US,1704331676
396,nuku'alofa,-21.1333,-175.2,302.34,74,20,6.17,TO,1704331806
397,haiku-pauwela,20.9219,-156.3051,301.16,59,0,9.26,US,1704331806
398,semnan,35.5729,53.3971,278.93,58,3,2.29,IR,1704331807
399,danjiangkou,32.5428,111.5086,281.96,54,0,1.18,CN,1704331807
400,donggang,28.9365,114.2259,282.63,52,8,0.98,CN,1704331809
401,madalena,41.2162,-8.3345,283.45,99,40,1.15,PT,1704331810
402,qarazhal,48.0078,70.7903,264.44,74,100,6.34,KZ,1704331810
403,mbanza kongo,-6.267,14.2401,292.21,99,92,0.08,AO,1704331811
404,codrington,-38.2667,141.9667,292.44,61,73,7.62,AU,1704331811
405,kokuy,52.2037,117.5529,253.61,95,100,0.58,RU,1704331811
406,chachersk,52.9164,30.9179,260.1,93,100,5.89,BY,1704331811
407,as sulayyil,20.4607,45.5779,293.29,37,98,1.43,SA,1704331812
408,sargodha,32.0836,72.6711,283.06,42,100,1.4,PK,1704331812
409,kishangarh,26.5667,74.8667,280.32,56,0,1.86,IN,1704331812
410,srivardhan,18.0333,73.0167,295.09,68,21,2.05,IN,1704331812
411,castillos,-34.1667,-53.8333,292.57,84,4,4.53,UY,1704331813
412,barra do corda,-5.5,-45.25,296.74,96,98,0.42,BR,1704331815
413,garachico,28.7781,-17.7646,290.21,68,0,3.6,ES,1704331818
414,kavieng,-2.5744,150.7967,302.2,75,90,3.21,PG,1704331818
415,quellon,-43.1167,-73.6167,286.24,86,93,0.55,CL,1704331818
416,mahalapye,-23.1041,26.8142,296.41,56,85,2.18,BW,1704331819
417,queenstown,-31.8976,26.8753,288.37,94,30,1.3,ZA,1704331819
418,hailey,43.5196,-114.3153,274.2,68,100,3.13,US,1704331819
419,chu,43.5983,73.7614,268.68,90,44,1.48,KZ,1704331829
420,rada tilly,-45.9333,-67.5333,294.42,46,0,1.03,AR,1704331830
421,ribeira brava,32.65,-17.0667,292.43,82,75,2.07,PT,1704331830
422,sodankyla,67.4167,26.6,248.46,100,100,3.46,FI,1704331831
423,aioun,16.6614,-9.6149,293.63,13,15,4.23,MR,1704331831
424,waingapu,-9.6567,120.2641,304.27,62,99,2.95,ID,1704331831
425,terrace,54.5163,-128.6035,275.1,93,100,1.54,CA,1704331831
426,pervomaysk,48.0443,30.8507,277.94,90,26,3.96,UA,1704331836
427,cut off,29.5427,-90.3381,285.15,83,91,3.93,US,1704331837
428,shubarshi,48.5872,57.1869,273.31,98,100,4.77,KZ,1704331837
429,sinop,41.7711,34.8709,281.56,81,98,5.07,TR,1704331838
430,dapa,9.7594,126.0531,300.98,67,18,1.37,PH,1704331838
431,senanga,-16.1167,23.2667,293.98,82,100,1.87,ZM,1704331839
432,kyzylorda,44.8528,65.5092,267.16,86,0,3.0,KZ,1704331779
433,boyolangu,-8.1181,111.8935,299.22,86,97,1.06,ID,1704331839
434,sur,22.5667,59.5289,294.36,71,45,1.69,OM,1704331839
435,kosong,38.3788,128.4676,277.42,54,3,4.11,KR,1704331840
436,walvis bay,-22.9575,14.5053,291.68,88,54,0.0,NA,1704331840
437,zhalantun,48.0,122.7167,259.21,91,100,5.52,CN,1704331841
438,suva,-18.1416,178.4415,304.86,62,40,3.6,FJ,1704331841
439,lebu,-37.6167,-73.65,287.69,83,86,6.88,CL,1704331841
440,gumdag,39.2061,54.5906,281.92,84,69,6.56,TM,1704331842
441,kapa'a,22.0752,-159.319,300.14,75,40,2.57,US,1704331842
442,luba,3.4568,8.5547,297.09,79,13,2.59,GQ,1704331842
443,mpulungu,-8.7623,31.1141,294.44,96,100,2.27,ZM,1704331843
444,turpan,42.9333,89.1667,270.13,60,6,0.2,CN,1704331843
445,lhokseumawe,5.1801,97.1507,300.17,73,79,1.42,ID,1704331843
446,crookston,47.7741,-96.6081,265.21,67,100,3.09,US,1704331844
447,urumqi,43.801,87.6005,258.68,85,100,1.0,CN,1704331844
448,atbara,17.7022,33.9864,290.69,37,3,4.82,SD,1704331844
449,salinopolis,-0.6136,-47.3561,298.96,90,100,4.77,BR,1704331845
450,camana,-16.6228,-72.7111,294.9,83,93,2.3,PE,1704331845
451,luwuk,-0.9516,122.7875,303.03,73,67,1.06,ID,1704331846
452,zdvinsk,54.7021,78.661,242.47,100,81,2.13,RU,1704331846
453,iguape,-24.7081,-47.5553,297.13,91,99,5.4,BR,1704331846
454,antsiranana,-12.2787,49.2917,300.44,78,73,5.29,MG,1704331846
455,tarko-sale,64.9225,77.785,250.93,92,100,8.43,RU,1704331846
456,roxas,11.5853,122.7511,298.79,79,46,3.7,PH,1704331846
457,san antonio de pale,-1.4014,5.6325,300.06,77,100,4.58,GQ,1704331847
458,adam,22.3756,57.5233,288.83,55,9,1.35,OM,1704331847
459,stjordalshalsen,63.4681,10.9262,264.15,53,33,7.72,NO,1704331847
460,alta,69.9689,23.2717,251.74,71,91,3.6,NO,1704331848
461,ancud,-41.8697,-73.8203,286.85,85,100,2.09,CL,1704331848
462,gunjur,13.2019,-16.7339,296.19,78,0,2.57,GM,1704331848
463,nikol'sk,53.7189,46.0712,248.68,100,92,2.63,RU,1704331849
464,kenora,49.8167,-94.4337,262.69,67,75,1.54,CA,1704331849
465,nazareth,32.7036,35.2956,285.73,89,94,0.88,IL,1704331849
466,cadale,2.7603,46.3222,298.03,75,100,7.53,SO,1704331849
467,tadine,-21.55,167.8833,300.38,66,90,5.33,NC,1704331849
468,kimbe,-5.5502,150.1429,305.07,63,99,2.49,PG,1704331850
469,carbonear,47.7332,-53.2148,273.9,86,100,1.96,CA,1704331851
470,san juan,-31.5375,-68.5364,303.94,29,26,8.61,AR,1704331720
471,bata,1.8639,9.7658,299.54,87,77,3.65,GQ,1704331851
472,colonia,50.9333,6.95,282.36,83,75,7.2,DE,1704331554
473,balsas,-7.5325,-46.0356,296.75,93,100,1.67,BR,1704331851
474,rey bouba,8.6724,14.1786,295.05,24,19,0.94,CM,1704331852
475,redencao,-4.2258,-38.7306,297.66,94,57,1.0,BR,1704331852
476,korem,12.5058,39.5228,281.15,87,1,0.16,ET,1704331852
477,dolores,-36.3132,-57.6792,291.44,83,7,4.53,AR,1704331852
478,at-bashi,41.1702,75.8106,260.76,78,62,1.05,KG,1704331853
479,columbia falls,48.3725,-114.1815,271.71,94,100,0.0,US,1704331853
480,sitka,57.0531,-135.33,281.09,61,100,8.23,US,1704331853
481,tamanrasset,22.785,5.5228,283.1,22,0,1.54,DZ,1704331853
482,ingeniero guillermo n. juarez,-23.9,-61.85,299.88,40,2,2.74,AR,1704331853
483,espera feliz,-20.6503,-41.9072,292.61,98,100,1.74,BR,1704331854
484,bhadasar,28.2833,74.3167,280.72,33,4,2.34,IN,1704331854
485,ratnagiri,16.9833,73.3,296.55,61,83,2.73,IN,1704331854
486,berezovyy,51.6667,135.7,255.81,82,34,0.29,RU,1704331854
487,tanjung pandan,-2.75,107.65,300.12,82,100,3.37,ID,1704331854
488,yerofey pavlovich,53.9667,121.9667,250.58,94,100,0.54,RU,1704331854
489,zag,46.9441,99.165,247.08,86,63,1.24,MN,1704331855
490,sudzha,51.1976,35.2726,265.27,94,100,6.47,RU,1704331855
491,verkhnyaya sinyachikha,57.976,61.6673,253.51,98,100,3.53,RU,1704331855
492,madang,-5.2246,145.7966,304.99,60,100,2.85,PG,1704331855
493,rio grande,-32.035,-52.0986,294.79,77,0,8.14,BR,1704331760
494,luena,-11.7833,19.9167,290.27,98,100,0.8,AO,1704331855
495,bangassou,4.7413,22.8184,293.25,45,100,1.29,CF,1704331856
496,septemvri,42.2167,24.1,279.05,73,12,1.88,BG,1704331856
497,ocean city,39.2776,-74.5746,277.58,73,100,1.72,US,1704331691
498,kloulklubed,7.0419,134.2556,301.43,75,58,4.68,PW,1704331856
499,santa maria del tule,17.0333,-96.6167,294.9,26,75,4.12,MX,1704331856
500,thames,-37.1333,175.5333,294.59,67,63,3.12,NZ,1704331856
501,guiuan,11.0333,125.7247,300.61,73,89,3.23,PH,1704331856
502,kuytun,54.3419,101.5036,261.16,80,100,4.76,RU,1704331857
503,ubinskoye,55.3068,79.6802,238.64,100,63,1.51,RU,1704331857
504,lospalos,-8.5186,127.0025,302.21,66,68,3.11,TL,1704331579
505,montalbano jonico,40.2879,16.5788,281.75,78,94,1.54,IT,1704331857
506,belmonte,-15.8631,-38.8828,299.12,91,100,4.21,BR,1704331857
507,horta,38.5333,-28.6333,288.16,89,25,0.45,PT,1704331857
508,tocopilla,-22.092,-70.1979,293.71,71,15,1.99,CL,1704331857
509,kalashnikovo,57.2824,35.2262,242.67,100,99,2.55,RU,1704331857
510,san marcos,33.1434,-117.1661,287.35,79,20,3.6,US,1704331775
511,kalawit,8.0667,122.5167,301.86,73,18,3.48,PH,1704331858
512,trairi,-3.2778,-39.2689,299.88,83,100,3.5,BR,1704331645
513,ciudad constitucion,25.0369,-111.6644,289.28,61,0,4.65,MX,1704331858
514,kalat,29.0225,66.5916,278.69,61,94,2.16,PK,1704331858
515,clearwater,27.9659,-82.8001,291.5,84,100,4.12,US,1704331724
516,manaure,11.7751,-72.4445,300.17,79,18,8.26,CO,1704331859
517,brundall,52.6227,1.4388,281.69,92,100,4.63,GB,1704331859
518,cole harbour,44.6724,-63.4751,270.86,90,12,1.36,CA,1704331859
519,masterton,-40.9597,175.6575,292.53,41,59,3.78,NZ,1704331859
520,ciudad lazaro cardenas,17.9583,-102.2,296.48,75,36,1.21,MX,1704331859
521,hancheng,32.5186,112.3522,281.0,62,0,3.3,CN,1704331860
522,zhaobaoshan,29.9695,121.6875,276.16,56,0,2.69,CN,1704331860
523,samtse,26.899,89.0995,288.65,49,4,1.67,BT,1704331860
524,karatuzskoye,53.6072,92.8667,259.82,91,100,1.5,RU,1704331860
525,medvezh'yegorsk,62.9167,34.4667,241.24,100,27,0.78,RU,1704331860
526,ibicarai,-14.865,-39.5875,295.97,97,98,1.01,BR,1704331860
527,kruisfontein,-34.0033,24.7314,291.42,94,99,3.76,ZA,1704331861
528,duekoue,6.7472,-7.3496,295.79,83,1,1.15,CI,1704331861
529,pangody,65.85,74.4859,253.92,94,100,7.89,RU,1704331861
530,port macquarie,-31.4333,152.9167,302.53,68,100,3.68,AU,1704331794
531,bac lieu,9.285,105.7244,300.96,68,17,6.63,VN,1704331861
532,igrim,63.1906,64.4162,249.14,89,27,3.21,RU,1704331862
533,steinbach,50.1667,8.5667,282.93,83,100,8.75,DE,1704331862
534,okha,53.5739,142.9478,254.42,87,100,1.44,RU,1704331862
535,mpraeso,6.5932,-0.7346,294.84,93,14,1.35,GH,1704331862
536,ad dawadimi,24.5077,44.3924,282.79,85,9,3.91,SA,1704331863
537,vernon,50.2581,-119.2691,277.38,91,99,1.03,CA,1704331864
538,dongola,19.1667,30.4833,288.3,37,75,4.24,SD,1704331864
539,kuraymah,18.55,31.85,289.02,30,55,4.23,SD,1704331864
540,vel'sk,61.0701,42.0983,242.19,100,39,0.89,RU,1704331864
541,douglas,41.3,-96.167,271.86,93,100,1.54,US,1704331808
542,sungai penuh,-2.0833,101.3833,295.32,82,91,0.91,ID,1704331865
543,tangalle,6.024,80.7911,296.24,88,56,3.64,LK,1704331865
544,shingu,33.7333,135.9833,284.82,50,3,3.85,JP,1704331866
545,kamaishi,39.2667,141.8833,277.68,96,100,4.01,JP,1704331866
546,ketchikan,55.3422,-131.6461,281.14,87,100,6.69,US,1704331866
547,magadan,59.5667,150.8,249.93,82,55,2.17,RU,1704331866
548,lerwick,60.1545,-1.1494,276.15,93,100,12.5,GB,1704331867
549,ochobo,7.183,7.9769,297.69,39,52,0.31,NG,1704331867
550,floro,61.5996,5.0328,271.13,37,40,4.63,NO,1704331867
551,chapaev,50.2,51.1667,269.55,77,84,6.57,KZ,1704331867
552,aldinga beach,-35.2793,138.4604,301.18,59,100,4.51,AU,1704331868
553,santa ana,33.7456,-117.8678,289.1,65,20,6.17,US,1704331662
554,barntrup,51.9904,9.1164,280.71,94,97,7.25,DE,1704331868
555,saint-philippe,-21.3585,55.7679,298.92,83,100,1.75,RE,1704331869
556,fort frances,48.5999,-93.4003,264.27,72,100,2.57,CA,1704331869
557,eyl,7.9803,49.8164,294.49,79,5,5.41,SO,1704331869
558,barcelos,41.5388,-8.6151,284.21,95,65,1.9,PT,1704331870
559,khilok,51.3674,110.4676,260.87,93,100,1.85,RU,1704331870
560,taki,22.5861,88.9214,287.12,52,0,2.13,IN,1704331870
561,show low,34.2542,-110.0298,278.75,55,0,5.66,US,1704331871
562,kittila,67.6647,24.8936,247.23,76,0,1.03,FI,1704331871
563,new norfolk,-42.7826,147.0587,291.99,36,12,2.1,AU,1704331871
564,santa maria del oro,25.9333,-105.3667,282.77,32,0,1.55,MX,1704331871
565,afif,23.9065,42.9172,284.99,79,4,5.2,SA,1704331872
566,fortuna,40.5982,-124.1573,282.96,96,100,0.0,US,1704331872
567,chatillon-sur-seine,47.8585,4.5738,281.4,88,88,8.33,FR,1704331872
568,xinyuan,37.3,99.0,262.56,25,42,1.93,CN,1704331873
569,shobara,34.85,133.0167,280.62,72,56,2.24,JP,1704331873
570,lukolela,-1.0605,17.1821,295.55,92,99,1.65,CD,1704331873
571,salekhard,66.53,66.6019,251.14,90,25,3.7,RU,1704331873
572,tame,6.461,-71.73,298.63,51,98,2.62,CO,1704331874
573,torbeyevo,54.0797,43.2473,250.13,100,80,1.85,RU,1704331874
574,laguna,38.421,-121.4238,284.85,80,20,2.06,US,1704331875
575,ust'-ilimsk,58.0006,102.6619,257.49,92,100,4.32,RU,1704331876
576,assab,13.0092,42.7394,297.93,74,4,9.09,ER,1704331876
577,keelakarai,9.2333,78.7833,298.26,82,26,4.48,IN,1704331877
578,hampton bays,40.869,-72.5176,278.07,73,100,2.68,US,1704331877
579,las lomitas,-24.7096,-60.593,298.07,54,0,2.15,AR,1704331878
